City_ID,City,Lat,Lng,Max Temp,Humidity,Cloudiness,Wind Speed,Country,Date
0,grytviken,-54.2811,-36.5092,0.42,84,60,6.77,GS,1701114046
1,akom ii,2.7833,10.5667,21.8,99,100,0.86,CM,1701114046
2,blackmans bay,-43.0167,147.3167,11.07,87,98,1.55,AU,1701114046
3,celestun,20.8667,-90.4,26.62,81,100,7.32,MX,1701114046
4,albany,42.6001,-73.9662,6.99,56,27,1.34,US,1701114046
5,senador jose porfirio,-2.5908,-51.9542,29.0,64,86,2.57,BR,1701114046
6,kabalo,-6.05,26.9167,20.22,98,100,0.28,CD,1701114046
7,vilyuysk,63.7553,121.6247,-15.0,90,100,4.02,RU,1701114046
8,lata,40.1629,-8.3327,16.01,89,100,0.65,PT,1701114046
9,bouillargues,43.7973,4.4285,8.54,87,100,4.12,FR,1701114046
10,gualaceo,-2.9,-78.7833,21.81,83,99,2.58,EC,1701114046
11,nova sintra,14.8667,-24.7167,22.32,66,90,3.47,CV,1701114047
12,adamstown,-25.066,-130.1015,21.98,82,100,12.24,PN,1701114047
13,comodoro rivadavia,-45.8667,-67.5,18.92,45,0,8.23,AR,1701114047
14,luderitz,-26.6481,15.1594,19.79,63,69,8.36,NA,1701114047
15,kerikeri,-35.2268,173.9474,14.39,91,1,2.33,NZ,1701114047
16,waitangi,-43.9535,-176.5597,11.57,91,100,0.89,NZ,1701114047
17,hariana,31.6378,75.8408,14.55,48,79,1.56,IN,1701114047
18,port mathurin,-19.6833,63.4167,24.63,73,1,4.62,MU,1701114047
19,muang phon-hong,18.4928,102.4172,20.04,88,81,0.98,LA,1701114047
20,hawaiian paradise park,19.5933,-154.9731,25.5,88,20,1.54,US,1701114047
21,fortuna,40.5982,-124.1573,14.43,60,0,3.09,US,1701114047
22,uturoa,-16.7333,-151.4333,26.22,79,100,8.71,PF,1701114047
23,margaret river,-33.95,115.0667,17.28,86,98,2.69,AU,1701114048
24,newman,37.3138,-121.0208,16.68,38,2,0.89,US,1701114048
25,gizo,-8.103,156.8419,27.49,78,58,1.28,SB,1701114048
26,bac lieu,9.285,105.7244,24.55,89,100,3.11,VN,1701114048
27,pandan,14.0453,124.1694,26.77,88,32,4.86,PH,1701114048
28,bredasdorp,-34.5322,20.0403,17.82,90,37,0.51,ZA,1701114048
29,yellowknife,62.456,-114.3525,-9.71,92,100,7.2,CA,1701114048
30,puerto ayora,-0.7393,-90.3518,30.98,85,94,4.02,EC,1701114048
31,iqaluit,63.7506,-68.5145,-3.15,73,75,6.71,CA,1701114048
32,howard springs,-12.497,131.047,25.95,97,100,1.22,AU,1701114048
33,selfoss,63.9331,-20.9971,4.85,97,100,1.25,IS,1701114008
34,kuta,-8.7233,115.1723,25.97,88,20,1.54,ID,1701114048
35,bethel,41.3712,-73.414,10.3,63,100,5.14,US,1701114048
36,papatowai,-46.5619,169.4708,13.63,89,100,2.3,NZ,1701114048
37,iskateley,67.6803,53.1512,-23.82,100,81,0.77,RU,1701114049
38,enewetak,11.3474,162.3373,27.82,75,7,10.13,MH,1701114049
39,tolanaro,-25.0319,46.9987,26.04,83,75,7.72,MG,1701114049
40,wailua homesteads,22.0669,-159.378,24.24,89,100,5.66,US,1701114049
41,hobyo,5.3505,48.5268,27.56,75,100,6.99,SO,1701114049
42,mbandaka,0.0487,18.2603,23.77,90,88,0.73,CD,1701114049
43,brookings,44.3114,-96.7984,-5.46,59,0,9.26,US,1701114049
44,necochea,-38.5473,-58.7368,20.25,68,24,9.12,AR,1701113893
45,usogorsk,63.4106,48.6872,-6.85,93,100,5.52,RU,1701114049
46,rio grande,-32.035,-52.0986,27.06,85,100,8.12,BR,1701114031
47,west island,-12.1568,96.8225,25.99,78,40,3.6,CC,1701113754
48,mozarlandia,-14.7447,-50.5706,33.6,42,91,1.94,BR,1701114049
49,whitehorse,60.7161,-135.0538,1.43,69,75,5.14,CA,1701114049
50,acapulco de juarez,16.8634,-99.8901,29.88,63,98,3.34,MX,1701114050
51,klyuchi,52.2667,79.1667,-1.2,77,100,5.81,RU,1701114050
52,grande prairie,55.1667,-118.8027,6.1,52,75,11.32,CA,1701114050
53,polyarnyy,69.1989,33.4478,-11.64,96,87,3.02,RU,1701114050
54,luohe,33.5717,114.0353,5.66,34,0,3.25,CN,1701114050
55,eaglehawk,-36.7333,144.25,12.42,84,100,2.17,AU,1701114050
56,port-aux-francais,-49.35,70.2167,4.3,76,88,8.93,TF,1701113998
57,ondjiva,-17.0667,15.7333,26.95,44,99,0.34,AO,1701114050
58,san juan,-31.5375,-68.5364,37.37,16,4,3.0,AR,1701114050
59,plouzane,48.3833,-4.6167,11.1,90,75,6.69,FR,1701114050
60,kirakira,-10.4544,161.9205,25.05,95,100,3.12,SB,1701114050
61,mahdia,35.5047,11.0622,13.97,46,66,5.97,TN,1701114050
62,bamboo flat,11.7,92.7167,29.05,79,40,3.09,IN,1701114051
63,ar ruways,24.1103,52.7306,25.52,59,1,2.62,AE,1701114051
64,naze,28.3667,129.4833,18.51,62,3,7.05,JP,1701114051
65,tubarjal,30.4999,38.216,13.89,72,0,5.75,SA,1701114051
66,ilulissat,69.2167,-51.1,-1.99,80,75,5.66,GL,1701114051
67,weno,7.4515,151.8468,27.97,89,75,2.06,FM,1701114051
68,pervomayskoye,43.919,46.7102,6.61,77,100,3.4,RU,1701114051
69,puerto natales,-51.7236,-72.4875,12.25,43,75,4.12,CL,1701113993
70,invercargill,-46.4,168.35,14.45,95,95,2.24,NZ,1701114051
71,mogocha,53.7333,119.7667,-21.05,85,100,1.2,RU,1701114051
72,linfen,36.0889,111.5189,3.37,29,5,0.78,CN,1701114051
73,tiksi,71.6872,128.8694,-23.39,100,88,2.62,RU,1701114051
74,berdigestyakh,62.0989,126.6992,-23.11,98,99,2.0,RU,1701114051
75,flin flon,54.7682,-101.865,-14.09,78,100,3.6,CA,1701114051
76,san andres,12.5847,-81.7006,31.01,70,20,6.69,CO,1701114052
77,mingora,34.7758,72.3625,13.88,36,99,1.79,PK,1701113969
78,port elizabeth,-33.918,25.5701,18.51,90,0,1.54,ZA,1701114052
79,bluefields,12.0137,-83.7635,31.04,74,20,3.09,NI,1701114052
80,edinburgh of the seven seas,-37.0676,-12.3116,13.39,67,15,5.81,SH,1701114052
81,bilibino,68.0546,166.4372,-16.39,98,72,2.26,RU,1701114052
82,la gloria,8.6187,-73.8027,33.83,51,7,0.3,CO,1701114052
83,lebu,-37.6167,-73.65,14.66,82,81,3.11,CL,1701114052
84,hiratacho,35.4333,132.8167,11.01,73,100,8.73,JP,1701114052
85,ushuaia,-54.8,-68.3,14.79,33,0,4.12,AR,1701114004
86,altay,47.8667,88.1167,-1.86,54,25,3.39,CN,1701114052
87,touros,-5.1989,-35.4608,27.11,74,5,5.43,BR,1701114052
88,stanley,54.868,-1.6985,5.66,93,75,8.23,GB,1701114053
89,portland,45.5234,-122.6762,9.99,59,20,5.81,US,1701113887
90,crane,31.3974,-102.3501,11.4,31,100,5.09,US,1701114053
91,talnakh,69.4865,88.3972,-24.14,99,78,3.69,RU,1701114053
92,kodiak,57.79,-152.4072,0.73,75,40,2.06,US,1701114053
93,sao paulo de olivenca,-3.3783,-68.8725,29.74,68,97,0.57,BR,1701114053
94,ixtapa,20.7,-105.2,28.46,61,100,1.54,MX,1701114053
95,suva,-18.1416,178.4415,25.71,94,75,2.06,FJ,1701114053
96,ponta delgada,37.7333,-25.6667,18.4,88,75,3.09,PT,1701114053
97,port saint john's,-31.6229,29.5448,20.91,88,8,2.35,ZA,1701114053
98,dubbo,-32.25,148.6167,19.07,82,100,3.6,AU,1701114053
99,san luis de la loma,17.2706,-100.8939,29.6,65,100,3.28,MX,1701114053
100,olonkinbyen,70.9221,-8.7187,2.01,89,88,8.99,SJ,1701114053
101,anadyr,64.75,177.4833,0.28,80,0,7.0,RU,1701114053
102,st. john's,47.5649,-52.7093,3.32,76,75,4.12,CA,1701113969
103,muroto-misakicho,33.2833,134.15,16.97,71,10,7.58,JP,1701114054
104,bandar-e anzali,37.4727,49.4622,17.06,84,15,6.66,IR,1701113925
105,trincomalee,8.5711,81.2335,27.58,80,100,6.19,LK,1701114054
106,xishan,27.6667,113.5,11.49,79,0,0.84,CN,1701114054
107,ust'-kut,56.7938,105.7672,-19.78,100,98,1.05,RU,1701114054
108,sao vicente,-23.9631,-46.3919,28.1,63,100,1.54,BR,1701113996
109,tshabong,-26.05,22.45,34.89,19,90,6.08,BW,1701114054
110,dukhan,25.4297,50.7858,25.77,67,44,3.64,QA,1701114054
111,cockburn town,21.4612,-71.1419,28.98,70,40,4.12,TC,1701113767
112,avarua,-21.2078,-159.775,25.03,73,75,7.72,CK,1701114054
113,san patricio,28.017,-97.5169,13.26,37,100,4.04,US,1701114054
114,mazouna,36.1223,0.8987,13.92,88,64,3.36,DZ,1701114054
115,flying fish cove,-10.4217,105.6791,24.82,83,75,3.6,CX,1701114054
116,lihue,21.9789,-159.3672,24.58,86,100,5.66,US,1701114054
117,novodvinsk,64.4165,40.8122,-10.68,82,100,5.73,RU,1701114055
118,dryden,49.7833,-92.7503,-13.84,66,40,4.12,CA,1701114055
119,jayapura,-2.5333,140.7,23.66,88,100,1.12,ID,1701114055
120,thompson,55.7435,-97.8558,-20.91,65,0,2.57,CA,1701114055
121,college,64.8569,-147.8028,-5.86,87,75,0.0,US,1701114055
122,caluso,45.305,7.8957,5.85,74,98,0.7,IT,1701114055
123,carnarvon,-24.8667,113.6333,21.29,68,16,7.53,AU,1701114055
124,zhanaozen,43.3,52.8,6.26,82,1,8.24,KZ,1701114055
125,aripuana,-9.1667,-60.6333,36.05,32,92,1.3,BR,1701114055
126,cabo san lucas,22.8909,-109.9124,29.78,63,20,2.57,MX,1701113756
127,togur,58.3631,82.8265,-13.25,98,91,0.89,RU,1701114055
128,kutum,14.2,24.6667,22.57,24,43,5.38,SD,1701114055
129,mount gambier,-37.8333,140.7667,11.8,91,100,3.33,AU,1701114056
130,qinggang,46.6833,126.0833,-20.04,98,25,3.41,CN,1701114056
131,badger,64.8,-147.5333,-5.91,89,75,0.0,US,1701114056
132,la passe,45.5549,-0.8967,12.77,85,12,8.43,FR,1701114056
133,tabou,4.423,-7.3528,26.16,84,72,2.63,CI,1701114056
134,noosa heads,-26.3833,153.15,22.28,90,100,0.79,AU,1701114056
135,tara,56.8944,74.371,-6.69,93,84,3.32,RU,1701114056
136,altai,46.3722,96.2583,-13.15,84,61,2.68,MN,1701114056
137,nuuk,64.1835,-51.7216,-2.66,80,75,7.2,GL,1701114056
138,ola,59.5833,151.2833,-16.59,70,100,4.4,RU,1701114056
139,kasempa,-13.4584,25.8338,18.24,94,100,1.02,ZM,1701114056
140,tura,25.5198,90.2201,19.09,67,100,0.91,IN,1701114056
141,codajas,-3.8367,-62.0569,29.85,59,96,1.48,BR,1701114056
142,moss vale,-34.55,150.3833,15.64,98,100,1.93,AU,1701114057
143,nar'yan-mar,67.6713,53.087,-23.76,100,78,0.73,RU,1701114057
144,wigton,54.8248,-3.1611,5.64,87,77,6.38,GB,1701114057
145,ulladulla,-35.35,150.4667,19.32,90,100,3.06,AU,1701114057
146,wasagu,11.3764,5.7954,26.32,37,7,2.34,NG,1701114057
147,porto novo,6.4965,2.6036,27.9,80,100,2.61,BJ,1701114057
148,utrik,11.2278,169.8474,27.43,74,48,9.93,MH,1701114057
149,afaahiti,-17.75,-149.2833,27.81,82,77,8.35,PF,1701114057
150,mlimba,-8.8,35.8167,25.25,63,98,0.68,TZ,1701114057
151,saldanha,-33.0117,17.9442,19.03,92,5,7.54,ZA,1701113970
152,itoman,26.1247,127.6694,22.01,70,75,4.63,JP,1701114057
153,shuangjiang,26.1547,109.7138,9.82,85,0,1.13,CN,1701114057
154,kulhudhuffushi,6.6221,73.07,27.91,77,100,3.0,MV,1701114057
155,tobelo,1.7284,128.0095,26.38,81,99,1.61,ID,1701114058
156,constantia,44.1833,28.65,0.39,78,94,6.7,RO,1701114058
157,kapuskasing,49.4169,-82.4331,-9.95,79,100,6.69,CA,1701114058
158,broome,42.2506,-75.833,4.28,87,100,4.63,US,1701114058
159,longyearbyen,78.2186,15.6401,3.91,75,75,7.2,SJ,1701114058
160,weligama,5.9667,80.4167,24.77,90,100,2.79,LK,1701114058
161,udachny,66.4167,112.4,-26.57,98,81,2.77,RU,1701114058
162,kupang,-10.1667,123.5833,26.32,100,75,1.03,ID,1701114058
163,kapa'a,22.0752,-159.319,24.99,89,100,5.66,US,1701114058
164,bani mazar,28.5036,30.8004,15.27,58,19,3.67,EG,1701114058
165,kievka,50.2619,71.5514,3.64,59,100,5.44,KZ,1701114058
166,spanish springs,39.6491,-119.7074,6.77,50,0,5.14,US,1701114058
167,atafu village,-8.5421,-172.5159,28.87,77,100,3.96,TK,1701114058
168,fuyuan,46.4333,127.0833,-18.27,99,97,2.78,CN,1701114059
169,tazovsky,67.4667,78.7,-21.32,100,90,3.1,RU,1701113393
170,formosa do rio preto,-11.0483,-45.1931,35.35,14,2,3.95,BR,1701114059
171,cape coast,5.1053,-1.2466,26.66,79,14,2.69,GH,1701114059
172,opuwo,-18.0607,13.84,25.1,51,100,4.45,NA,1701114059
173,ancud,-41.8697,-73.8203,12.91,84,100,6.96,CL,1701114059
174,santa cruz,-17.8,-63.1667,32.03,55,75,10.29,BO,1701114059
175,hithadhoo,-0.6,73.0833,27.7,78,100,2.81,MV,1701114059
176,mazamari,-11.3258,-74.5308,28.97,67,80,0.46,PE,1701114059
177,vila velha,-20.3297,-40.2925,27.97,86,75,4.63,BR,1701114059
178,aldama,22.9167,-98.0667,16.39,65,100,2.25,MX,1701114059
179,paradip garh,20.3167,86.6167,22.35,63,69,1.44,IN,1701114059
180,zaysan,47.4667,84.8667,-0.7,75,65,0.97,KZ,1701114059
181,mil'kovo,55.6078,37.7956,0.23,78,100,8.16,RU,1701114060
182,pitangui,-19.6828,-44.8903,28.59,56,95,0.69,BR,1701114060
183,carloforte,39.145,8.3058,17.25,80,99,9.08,IT,1701114060
184,codrington,-38.2667,141.9667,10.91,94,100,2.31,AU,1701114060
185,la ronge,55.1001,-105.2842,-7.86,79,100,4.12,CA,1701114060
186,koryazhma,61.3143,47.1691,-3.38,92,100,4.66,RU,1701114060
187,kudahuvadhoo,2.6708,72.8944,27.87,73,100,1.97,MV,1701114060
188,emerald,-23.5333,148.1667,19.63,99,100,4.83,AU,1701114060
189,whitburn,54.9533,-1.3686,7.36,86,100,10.64,GB,1701114060
190,ribeira grande,38.5167,-28.7,18.22,94,75,1.54,PT,1701114060
191,lompoc,34.6391,-120.4579,22.1,25,0,2.68,US,1701114060
192,santiago de cao,-7.9589,-79.2392,21.07,78,20,6.56,PE,1701114060
193,baglung,28.2719,83.5898,13.4,40,100,2.45,NP,1701114019
194,kenai,60.5544,-151.2583,2.27,98,100,3.6,US,1701114061
195,mahibadhoo,3.7833,72.9667,28.37,69,99,0.4,MV,1701114061
196,priargunsk,50.3691,119.1012,-32.43,100,38,0.41,RU,1701114061
197,shasta lake,40.6804,-122.3708,16.15,33,0,0.81,US,1701114061
198,port alfred,-33.5906,26.891,18.99,95,2,0.42,ZA,1701114061
199,tucurui,-3.7661,-49.6725,32.03,49,100,2.03,BR,1701114061
200,hamilton,39.1834,-84.5333,2.91,64,100,7.72,US,1701114061
201,labuan,5.2767,115.2417,27.2,89,20,0.0,MY,1701114061
202,hermanus,-34.4187,19.2345,18.15,89,38,0.66,ZA,1701114061
203,nicosia,35.1667,33.3667,13.05,62,20,2.57,CY,1701113561
204,uberaba,-19.7483,-47.9319,26.32,69,40,3.09,BR,1701114061
205,sabang,5.8933,95.3214,24.73,93,100,7.7,ID,1701114061
206,puerto aysen,-45.4,-72.7,16.37,76,94,3.12,CL,1701114062
207,akureyri,65.6835,-18.0878,0.96,93,0,2.57,IS,1701114062
208,blackfoot,43.1905,-112.345,0.4,67,9,1.07,US,1701114062
209,mossel bay,-34.1831,22.146,18.82,76,0,1.66,ZA,1701114062
210,peniche,39.3558,-9.3811,16.27,91,100,2.59,PT,1701114062
211,igarka,67.4667,86.5833,-20.5,97,95,4.77,RU,1701114062
212,lucas,41.6501,-83.6666,-1.62,65,100,6.69,US,1701114062
213,madang,-5.2246,145.7966,24.28,89,94,1.82,PG,1701113840
214,tauranga,-37.6861,176.1667,17.19,83,51,1.34,NZ,1701114062
215,labuan bajo,-8.4964,119.8877,25.7,85,100,3.13,ID,1701114062
216,lamu,-2.2717,40.902,24.12,82,94,1.99,KE,1701114062
217,hilo,19.7297,-155.09,26.27,87,20,2.24,US,1701114062
218,badiyah,22.45,58.8,21.87,62,0,2.3,OM,1701114062
219,broken hill,-31.95,141.4333,18.06,81,52,4.53,AU,1701114063
220,antsiranana,-12.2787,49.2917,25.11,74,75,5.29,MG,1701113945
221,fort bragg,35.139,-79.006,15.08,39,0,6.69,US,1701114063
222,praia da vitoria,38.7333,-27.0667,18.75,88,40,2.78,PT,1701114063
223,qaqortoq,60.7167,-46.0333,-13.32,73,7,3.98,GL,1701114063
224,isafjordur,66.0755,-23.124,2.79,92,100,2.53,IS,1701114063
225,smithers,54.7804,-127.1743,0.18,80,75,2.57,CA,1701114063
226,ardmore,34.1743,-97.1436,12.14,37,0,4.12,US,1701114063
227,mitu,1.1983,-70.1733,28.37,85,43,0.87,CO,1701114063
228,isangel,-19.55,169.2667,25.06,73,75,3.09,VU,1701114063
229,cill airne,52.05,-9.5167,5.22,88,89,2.54,IE,1701114063
230,satuek,15.297,103.2919,20.59,66,49,5.71,TH,1701114063
231,yoro,15.1333,-87.1333,29.29,61,40,2.06,HN,1701114064
232,jamestown,42.097,-79.2353,0.01,78,100,9.26,US,1701114064
233,kachug,53.9606,105.8817,-19.7,98,93,1.38,RU,1701114064
234,veraval,20.9,70.3667,22.8,72,0,4.95,IN,1701114064
235,misratah,32.3754,15.0925,18.56,43,28,6.21,LY,1701114064
236,qarazhal,48.0078,70.7903,5.11,54,100,4.04,KZ,1701114064
237,kualakapuas,-3.0091,114.3876,24.11,95,99,0.3,ID,1701114064
238,soio,-6.1349,12.3689,25.81,86,100,2.84,AO,1701114064
239,sitangkai,4.6628,119.3928,27.33,79,100,2.33,PH,1701114064
240,dampit,-8.2116,112.7493,21.76,94,100,0.74,ID,1701114064
241,galveston,29.3669,-94.9669,15.05,53,0,6.17,US,1701114065
242,hasaki,35.7333,140.8333,15.22,79,22,9.88,JP,1701114065
243,labytnangi,66.6572,66.4183,-16.03,96,100,1.52,RU,1701114065
244,hadibu,12.65,54.0333,25.91,66,93,4.94,YE,1701114065
245,kailua-kona,19.6406,-155.9956,26.95,78,100,3.09,US,1701114065
246,howrah,22.5892,88.3103,23.0,73,75,0.0,IN,1701114065
247,maintirano,-18.0667,44.0167,27.53,77,16,5.15,MG,1701114065
248,urangan,-25.3,152.9,21.16,91,100,3.41,AU,1701114065
249,east ballina,-28.8667,153.5833,19.89,84,100,1.48,AU,1701114065
250,nizhneudinsk,54.9076,99.0276,-18.28,99,61,0.72,RU,1701114065
251,moscow,55.7522,37.6156,0.25,91,100,7.45,RU,1701113832
252,port lincoln,-34.7333,135.8667,13.22,91,100,8.84,AU,1701113918
253,bowen,-20.0167,148.2333,24.97,85,100,1.87,AU,1701114065
254,natal,-5.795,-35.2094,25.36,94,75,6.17,BR,1701114015
255,atyrau,47.1167,51.8833,5.01,93,75,9.0,KZ,1701113960
256,petropavlovsk-kamchatsky,53.0452,158.6483,-5.86,63,75,7.15,RU,1701114066
257,sarai,53.7458,41.0213,-1.94,87,99,8.9,RU,1701114066
258,boguchany,58.3814,97.4531,-22.27,99,6,0.58,RU,1701114066
259,ta`u,-14.2336,-169.5144,27.52,84,29,10.02,AS,1701114066
260,aasiaat,68.7098,-52.8699,-5.4,89,100,7.82,GL,1701114066
261,keflavik,64.0049,-22.5624,3.95,93,75,5.14,IS,1701113999
262,namibe,-15.1961,12.1522,23.67,75,100,3.45,AO,1701114066
263,tadine,-21.55,167.8833,23.03,68,98,4.12,NC,1701114066
264,lemvig,56.5486,8.3102,-0.45,79,100,9.64,DK,1701113887
265,morada nova,-5.1067,-38.3725,33.73,39,72,5.76,BR,1701114066
266,nantucket,41.2835,-70.0995,12.83,75,0,6.69,US,1701114066
267,dunda,-8.1167,34.25,24.17,60,100,0.38,TZ,1701114066
268,torghay,49.6339,63.4981,3.11,77,12,3.87,KZ,1701114066
269,markala,13.7021,-6.0659,29.51,17,10,4.36,ML,1701114066
270,carutapera,-1.195,-46.02,28.76,68,93,3.98,BR,1701114067
271,namdrik,5.5994,168.1028,28.3,80,100,8.0,MH,1701114067
272,sarkisla,39.3519,36.4098,-4.65,75,61,2.95,TR,1701114067
273,afif,23.9065,42.9172,23.13,36,7,0.85,SA,1701114067
274,argo,37.6333,22.7333,8.77,68,100,1.57,GR,1701114067
275,susuman,62.7833,148.1667,-18.56,99,100,1.99,RU,1701114067
276,ciudad lazaro cardenas,17.9583,-102.2,30.07,57,73,3.43,MX,1701114067
277,ban karon,7.8477,98.2985,28.21,76,82,6.75,TH,1701114067
278,remire-montjoly,4.9167,-52.2667,30.02,70,40,6.17,GF,1701114067
279,al hawatah,13.4167,34.6333,30.89,25,0,3.39,SD,1701114067
280,gornyatskiy,48.2915,40.9575,-0.83,69,61,6.64,RU,1701114067
281,guanica,17.9716,-66.908,30.63,63,12,6.04,PR,1701114067
282,viedma,-40.8135,-62.9967,18.43,50,100,12.84,AR,1701114068
283,cambria,35.5641,-121.0808,21.39,36,100,0.99,US,1701114068
284,banda aceh,5.5577,95.3222,24.63,93,98,4.9,ID,1701114068
285,suwayr,30.1171,40.3893,16.52,52,69,3.56,SA,1701114068
286,kingston,17.997,-76.7936,31.8,68,20,3.6,JM,1701114015
287,tralee,52.2704,-9.7026,6.48,81,89,3.47,IE,1701114068
288,georgetown,5.4112,100.3354,26.96,87,20,1.54,MY,1701113848
289,kiraoli,27.15,77.7833,17.53,55,98,2.05,IN,1701114068
290,tyup,42.7276,78.3648,3.29,55,100,1.23,KG,1701114068
291,lospalos,-8.5186,127.0025,22.7,87,93,0.39,TL,1701113909
292,thurso,58.5927,-3.5259,6.14,77,90,1.32,GB,1701114068
293,khairpur,27.5295,68.7617,16.0,51,2,2.76,PK,1701114068
294,santyoku,37.4406,129.1708,4.42,64,10,8.75,KR,1701114068
295,peace river,56.2501,-117.286,5.17,65,40,8.23,CA,1701114068
296,arkhangel'sk,64.5401,40.5433,-10.49,82,100,5.85,RU,1701114058
297,uaua,-9.8414,-39.4817,34.98,19,8,4.81,BR,1701114068
298,port blair,11.6667,92.75,29.02,79,40,3.09,IN,1701114069
299,mar del plata,-38.0023,-57.5575,22.13,93,100,6.17,AR,1701113469
300,vodnyy,63.5046,53.4095,-5.88,95,100,3.92,RU,1701114069
301,mildura,-34.2,142.15,17.26,74,27,2.73,AU,1701114069
302,al bayda',32.7627,21.7551,10.8,61,39,3.95,LY,1701114069
303,minas de marcona,-15.2119,-75.1103,20.29,56,71,6.83,PE,1701114069
304,pemangkat,1.1667,108.9667,25.85,86,98,2.14,ID,1701114069
305,bethanie,-26.4833,17.15,32.54,15,62,8.22,NA,1701114069
306,sosnovo-ozerskoye,52.5249,111.5418,-23.72,99,38,1.44,RU,1701114069
307,kavaratti,10.5669,72.642,28.51,72,53,2.32,IN,1701114069
308,alice springs,-23.7,133.8833,20.75,52,89,3.09,AU,1701114069
309,nemuro,43.3236,145.575,7.03,87,100,7.07,JP,1701114069
310,ciudad del carmen,18.6333,-91.8333,27.7,71,100,2.85,MX,1701114070
311,gaitania,3.0906,-75.6723,24.5,69,49,1.74,CO,1701114070
312,pacific grove,36.6177,-121.9166,20.36,36,0,2.57,US,1701114070
313,sokoni,-6.4333,39.55,27.06,81,25,4.7,TZ,1701114070
314,beledweyne,4.7358,45.2036,28.36,47,100,3.48,SO,1701114070
315,sydney,-33.8679,151.2073,20.98,80,75,4.63,AU,1701113910
316,bouar,5.934,15.596,21.92,66,85,0.85,CF,1701114070
317,labrador city,52.9463,-66.9114,-1.05,93,100,7.72,CA,1701114070
318,nizhnyaya tavda,57.6731,66.1725,0.45,86,100,5.0,RU,1701114070
319,chonchi,-42.6128,-73.8092,15.62,59,100,3.7,CL,1701114070
320,dwarka,22.2394,68.9678,22.94,63,0,5.18,IN,1701114070
321,nybro,56.7446,15.9071,-3.86,67,15,4.63,SE,1701113470
322,nefta,33.8731,7.8777,15.14,47,42,2.4,TN,1701114071
323,piacabucu,-10.4056,-36.4344,26.78,74,17,4.46,BR,1701114071
324,cuamba,-14.8031,36.5372,27.94,41,99,1.71,MZ,1701114071
325,wynyard,-41.0,145.7167,13.08,87,100,3.98,AU,1701114071
326,nurota,40.5614,65.6886,16.11,41,41,5.24,UZ,1701114071
327,el coacoyul,17.6167,-101.4333,31.53,58,100,2.57,MX,1701114071
328,kruisfontein,-34.0033,24.7314,14.57,88,0,0.29,ZA,1701114071
329,kalach,50.4258,41.0261,-1.69,76,100,7.82,RU,1701114071
330,qianzhou,28.3167,109.7167,12.38,85,1,0.77,CN,1701114071
331,severo-yeniseyskiy,60.3725,93.0408,-27.62,97,11,1.03,RU,1701114071
332,dunedin,-45.8742,170.5036,13.22,92,93,0.45,NZ,1701114071
333,prado,-17.3411,-39.2208,25.07,81,78,2.8,BR,1701114071
334,sopur,34.3,74.4667,9.56,45,100,0.45,IN,1701114071
335,prince rupert,54.3161,-130.3201,7.83,96,100,10.8,CA,1701114072
336,inhambane,-23.865,35.3833,23.15,86,0,3.32,MZ,1701114072
337,san antonio de pale,-1.4014,5.6325,26.08,81,100,2.72,GQ,1701114072
338,de bilt,52.11,5.1806,3.87,95,100,2.24,NL,1701114072
339,mount pearl,47.5166,-52.7813,2.2,76,75,4.12,CA,1701114072
340,saipan,15.1355,145.701,26.39,94,100,4.63,MP,1701114072
341,bemidji,47.4736,-94.8803,-10.53,72,100,8.23,US,1701114072
342,ternate,0.8,127.4,26.95,80,100,1.17,ID,1701114072
343,vorgashor,67.5833,63.95,-22.61,98,5,2.05,RU,1701114072
344,nouadhibou,20.931,-17.0347,21.99,53,100,6.17,MR,1701114072
345,macomb,40.4592,-90.6718,-1.76,67,12,7.6,US,1701114072
346,cidreira,-30.1811,-50.2056,22.08,88,100,8.57,BR,1701114072
347,athens,37.9795,23.7162,12.31,56,20,1.34,GR,1701113621
348,sitka,57.0531,-135.33,6.94,87,100,2.06,US,1701114073
349,belmonte,-15.8631,-38.8828,26.53,66,1,3.42,BR,1701114073
350,malanje,-9.5402,16.341,18.13,98,100,1.09,AO,1701114073
351,brak,27.5496,14.2714,15.74,33,92,2.89,LY,1701114073
352,buston,40.2342,69.6948,6.1,87,0,3.0,TJ,1701114073
353,vernon,50.2581,-119.2691,4.78,68,62,2.24,CA,1701114073
354,cartagena,10.3997,-75.5144,32.79,66,40,5.14,CO,1701113850
355,galle,6.0367,80.217,25.23,89,100,3.19,LK,1701114073
356,colonia,50.9333,6.95,5.33,91,100,3.6,DE,1701113806
357,rongelap,11.1635,166.8941,27.7,77,15,9.68,MH,1701114073
358,whistler,50.1164,-122.9695,4.2,93,100,0.0,CA,1701114073
359,muisne,0.6,-80.0333,25.52,84,96,5.81,EC,1701114073
360,yass,-34.8333,148.9167,17.79,89,100,4.1,AU,1701114073
361,brisas de zicatela,15.8369,-97.0419,29.91,63,100,2.41,MX,1701114073
362,chibougamau,49.9168,-74.3659,-1.21,93,100,6.69,CA,1701114074
363,collingwood,44.4834,-80.2164,0.36,81,96,7.89,CA,1701114074
364,bantay,17.5847,120.3892,25.08,80,1,2.33,PH,1701114074
365,sucua,-2.4667,-78.1667,24.41,73,75,4.12,EC,1701114074
366,lobito,-12.3481,13.5456,26.29,84,100,4.65,AO,1701114074
367,lamballe,48.4676,-2.5144,11.06,91,64,1.79,FR,1701114074
368,fisterra,42.9049,-9.2629,14.45,79,100,1.36,ES,1701114074
369,east london,-33.0153,27.9116,20.57,87,0,1.15,ZA,1701113780
370,new norfolk,-42.7826,147.0587,11.72,80,86,0.63,AU,1701114074
371,yamada,39.4667,141.95,8.89,87,9,2.87,JP,1701114074
372,rafsanjan,30.4067,55.9939,14.83,41,0,4.62,IR,1701114074
373,guarapari,-20.6667,-40.4975,25.5,83,90,3.82,BR,1701113835
374,tangalle,6.024,80.7911,24.82,91,100,2.98,LK,1701114075
375,punta arenas,-53.15,-70.9167,16.01,44,0,4.12,CL,1701114075
376,isfara,40.1265,70.6253,10.29,31,14,0.71,TJ,1701114075
377,camocim,-2.9022,-40.8411,28.25,73,100,7.48,BR,1701114075
378,masterton,-40.9597,175.6575,13.82,70,80,5.43,NZ,1701114075
379,santa eularia des riu,38.9846,1.5341,17.95,78,0,4.12,ES,1701114075
380,la'ie,21.6477,-157.9253,25.06,75,100,4.47,US,1701114075
381,obidos,-1.9175,-55.5181,28.61,70,62,2.06,BR,1701114075
382,stephenville,32.2207,-98.2023,11.76,32,0,2.06,US,1701113825
383,geraldton,-28.7667,114.6,21.23,68,40,5.14,AU,1701114075
384,spring creek,40.7266,-115.5859,-1.5,73,5,1.38,US,1701114075
385,merritt,50.1123,-120.7942,1.85,69,100,1.34,CA,1701114075
386,port augusta,-32.5,137.7667,17.04,85,30,5.11,AU,1701114075
387,marka,1.7159,44.7717,26.75,83,99,4.64,SO,1701114075
388,nikolayevsk-on-amure,53.1406,140.73,-17.75,83,0,2.47,RU,1701114076
389,tarnogskiy gorodok,60.4997,43.5761,-1.4,89,100,5.09,RU,1701114076
390,sechura,-5.5569,-80.8222,26.49,55,19,7.58,PE,1701114076
391,bukama,-9.2,25.85,20.48,98,96,1.28,CD,1701114076
392,kill devil hills,36.0307,-75.676,13.88,65,0,2.57,US,1701114076
393,barabai,-2.5833,115.3833,23.55,99,100,0.44,ID,1701114076
394,vangaindrano,-23.35,47.6,23.89,91,31,2.54,MG,1701114076
395,great falls,47.5002,-111.3008,9.67,32,0,12.35,US,1701114076
396,onega,63.9061,38.1404,-7.57,82,100,7.89,RU,1701114076
397,acarau,-2.8856,-40.12,28.09,73,93,7.45,BR,1701114076
398,aktobe,50.2797,57.2072,1.05,93,40,3.0,KZ,1701114076
399,zhongxiang,31.1661,112.5831,10.84,62,0,1.74,CN,1701114049
400,xinzhou,38.4092,112.7333,-5.09,47,0,0.52,CN,1701114076
401,montepuez,-13.1256,38.9997,23.54,74,82,1.43,MZ,1701114077
402,cova figueira,14.8905,-24.2934,22.55,70,55,5.59,CV,1701114077
403,cannonvale,-20.2833,148.7,23.66,86,100,1.65,AU,1701114077
404,caninde,-4.3589,-39.3117,33.51,39,50,4.63,BR,1701114077
405,sinabang,2.4803,96.3801,25.88,87,100,2.45,ID,1701114077
406,richards bay,-28.783,32.0377,23.37,91,58,0.77,ZA,1701114077
407,mato verde,-15.3972,-42.8664,31.28,41,73,4.25,BR,1701114077
408,morondava,-20.2833,44.2833,26.94,71,1,7.7,MG,1701114077
409,sumbawa besar,-8.5,117.4333,23.42,95,100,1.63,ID,1701114077
410,tofol,5.3248,163.0078,28.6,79,83,7.75,FM,1701114077
411,kanggye,40.9695,126.5852,-8.43,85,77,1.74,KP,1701114078
412,koungou,-12.7336,45.2042,27.84,78,20,2.57,YT,1701114078
413,gadzhiyevo,69.2551,33.3362,-11.97,97,84,2.99,RU,1701114078
414,lubang,13.8584,120.124,27.64,79,72,8.38,PH,1701114078
415,dudinka,69.4058,86.1778,-20.15,96,92,4.84,RU,1701114078
416,wuyang,31.9925,116.2472,8.65,47,0,2.55,CN,1701114078
417,garoowe,8.4054,48.4845,24.68,61,100,6.07,SO,1701114078
418,thabazimbi,-24.5917,27.4116,26.78,36,49,2.14,ZA,1701114078
419,nchelenge,-9.3451,28.734,21.53,80,72,2.57,ZM,1701114078
420,burley,42.5357,-113.7928,-5.39,79,0,0.0,US,1701114078
421,gomez farias,23.05,-99.15,16.71,74,100,1.69,MX,1701114078
422,zahedan,29.4963,60.8629,11.95,76,0,5.14,IR,1701113974
423,mikuni,36.2171,136.1519,11.95,71,100,7.27,JP,1701114078
424,fort-shevchenko,44.5086,50.263,7.27,71,100,11.64,KZ,1701114079
425,fort st. john,56.2499,-120.8529,4.94,60,75,12.35,CA,1701114079
426,oliver,49.1831,-119.5524,3.8,75,100,3.09,CA,1701114079
427,shaowu,27.3409,117.4831,10.46,77,0,0.36,CN,1701114079
428,baiti,13.745,-14.7482,30.34,22,3,1.59,SN,1701114079
429,tekkali,18.6167,84.2333,21.03,76,9,2.01,IN,1701114079
430,muynoq,43.7683,59.0214,14.22,29,100,6.33,UZ,1701114079
431,colares,38.7992,-9.4469,16.85,96,100,6.26,PT,1701114079
432,puerto armuelles,8.2833,-82.8667,30.99,74,65,3.13,PA,1701114079
433,saint-philippe,-21.3585,55.7679,23.77,84,42,2.91,RE,1701114079
434,zav'yalovo,56.7847,53.3776,-3.55,89,56,3.13,RU,1701114079
435,dhidhdhoo,6.8833,73.1,28.16,77,95,3.54,MV,1701113861
436,thunder bay,48.4001,-89.3168,-10.01,52,75,7.72,CA,1701114080
437,ust-nera,64.5667,143.2,-26.63,100,100,2.83,RU,1701114080
438,jiuquan,39.7432,98.5174,2.28,30,92,2.55,CN,1701114080
439,san michele,46.4547,11.2618,5.6,68,20,1.03,IT,1701114080
440,lesnoy,57.6198,63.0784,0.53,86,100,4.71,RU,1701114063
441,vadso,70.0744,29.7487,-2.91,80,75,3.09,NO,1701114080
442,egilsstadir,65.2653,-14.3948,3.95,75,0,8.23,IS,1701114080
443,la tuque,47.4334,-72.7824,2.14,87,100,2.57,CA,1701114080
444,liman,48.9884,37.8023,-2.06,73,46,8.02,UA,1701114080
445,sao tome,0.3365,6.7273,26.04,83,100,3.14,ST,1701113992
446,yekaterinoslavka,50.3734,129.1139,-25.71,97,87,2.11,RU,1701114080
447,shache,38.4167,77.2406,2.74,34,3,0.15,CN,1701114080
448,ruteng,-8.6136,120.4721,17.16,94,100,0.55,ID,1701114080
449,gawler,-34.6,138.7333,14.08,89,100,7.24,AU,1701114081
450,oranjemund,-28.55,16.4333,17.43,89,28,7.4,NA,1701114009
451,bel ombre,-4.6167,55.4167,26.91,83,20,1.03,SC,1701114081
452,tual,-5.6667,132.75,28.14,76,100,1.78,ID,1701114081
453,gamba,-2.65,10.0,24.48,91,100,3.62,GA,1701114081
454,porto empedocle,37.2934,13.5264,16.26,76,99,5.76,IT,1701114081
455,coahuayana de hidalgo,18.7,-103.6583,31.5,49,100,1.56,MX,1701114081
456,quellon,-43.1167,-73.6167,15.71,64,100,4.64,CL,1701114081
457,novyy urgal,51.0736,132.5642,-22.09,95,100,0.85,RU,1701114081
458,ubari,26.5921,12.7805,16.11,34,0,3.77,LY,1701114081
459,labasa,-16.4167,179.3833,28.41,74,96,2.99,FJ,1701114081
460,meadow lake,34.8014,-106.5436,6.89,47,100,2.92,US,1701114081
461,soledade,-28.8183,-52.5103,19.38,93,100,1.66,BR,1701114081
462,mejit,10.2753,170.8646,27.53,78,5,9.9,MH,1701114081
463,mount isa,-20.7333,139.5,19.87,100,3,2.57,AU,1701114082
464,luganville,-15.5333,167.1667,26.79,81,100,4.53,VU,1701114082
465,korla,41.7597,86.1469,1.63,43,94,1.43,CN,1701114082
466,bodaybo,57.8506,114.1933,-18.65,99,100,1.05,RU,1701114082
467,port pirie,-33.1833,138.0167,16.57,90,13,2.0,AU,1701114082
468,calingasta,-31.3308,-69.4078,32.49,10,0,1.9,AR,1701114082
469,santo antonio do ica,-3.1022,-67.9397,31.41,59,100,1.3,BR,1701114082
470,aykhal,66.0,111.5,-23.67,99,93,3.97,RU,1701114082
471,tsafe,11.9553,6.9223,26.46,23,37,3.59,NG,1701114082
472,nasir,15.5894,32.5634,31.19,19,4,4.61,SD,1701114082
473,cambridge,43.3601,-80.3127,0.01,68,100,9.26,CA,1701113889
474,leiston,52.2061,1.5776,6.61,96,100,8.08,GB,1701114082
475,nadym,65.5333,72.5167,-9.44,95,100,4.32,RU,1701114044
476,fuling,29.7022,107.3919,14.0,76,3,1.2,CN,1701114083
477,ghat,24.9647,10.1728,18.9,21,0,2.05,LY,1701114083
478,northam,51.0333,-4.2167,8.14,81,54,8.82,GB,1701114083
479,ataq,14.5377,46.8319,19.95,54,82,1.91,YE,1701114083
480,larne,54.85,-5.8167,8.63,90,16,6.39,GB,1701114083
481,claveria,18.6074,121.0832,24.94,92,39,5.44,PH,1701114083
482,xining,36.6167,101.7667,-0.45,38,5,1.18,CN,1701114083
483,bikenibeu village,1.3673,173.1241,26.98,94,40,0.0,KI,1701114083
484,sidi khaled,34.387,4.9879,13.21,38,11,2.79,DZ,1701114083
485,tsiombe,-25.3,45.4833,24.26,87,68,6.25,MG,1701114083
486,copala,16.65,-98.9833,30.14,61,73,3.9,MX,1701114083
487,ulety,51.3572,112.4849,-15.66,84,98,3.53,RU,1701114083
488,jwaneng,-24.6004,24.7303,28.83,27,54,0.49,BW,1701114083
489,walin,27.9833,83.7667,14.59,72,98,2.36,NP,1701114008
490,lahad datu,5.0268,118.327,23.9,95,83,1.51,MY,1701114084
491,stawell,-37.05,142.7667,9.33,91,100,3.69,AU,1701114084
492,yarmouth,41.7057,-70.2286,12.83,67,0,5.36,US,1701114084
493,bodo,67.28,14.405,-5.68,74,0,9.77,NO,1701114084
494,dauphin,51.1494,-100.0502,-10.92,67,40,2.06,CA,1701114084
495,byron bay,-28.65,153.6167,19.84,85,100,2.2,AU,1701114084
496,kota belud,6.351,116.4305,24.25,88,77,2.14,MY,1701114084
497,lorengau,-2.0226,147.2712,27.07,78,17,0.5,PG,1701114084
498,cooma,-36.2333,149.1333,12.89,94,100,2.42,AU,1701114084
499,tocopilla,-22.092,-70.1979,21.44,64,18,4.98,CL,1701114084
500,kone,-21.0595,164.8658,23.93,72,96,1.63,NC,1701114084
501,pangody,65.85,74.4859,-10.58,95,100,3.82,RU,1701114084
502,guerrero negro,27.9769,-114.0611,22.08,50,40,2.13,MX,1701114085
503,sorong,-0.8833,131.25,25.95,87,98,1.86,ID,1701114085
504,daud khel,32.875,71.5701,18.29,32,70,1.31,PK,1701114085
505,vilyuchinsk,52.9306,158.4028,-5.04,83,45,3.85,RU,1701113836
506,sungai raya,0.7,108.9,24.95,91,100,1.17,ID,1701114085
507,sodra sandby,56.5667,16.6167,-3.39,84,92,8.47,SE,1701114085
508,qarqaraly,49.4058,75.4742,-0.53,70,100,2.68,KZ,1701114085
509,farsan,32.2569,50.561,7.02,81,0,3.19,IR,1701113880
510,dvurechensk,56.5982,61.0953,0.27,89,100,4.13,RU,1701114085
511,kasserine,35.1676,8.8365,11.69,47,95,3.4,TN,1701114085
512,biloela,-24.4167,150.5,20.92,88,100,1.6,AU,1701114085
513,isheyevka,54.4167,48.2667,1.23,97,100,2.66,RU,1701114085
514,mahajanga,-15.7167,46.3167,29.01,79,20,3.09,MG,1701113808
515,xingcheng,40.6167,120.7167,-5.78,51,1,3.54,CN,1701114086
516,bintulu,3.1667,113.0333,26.23,94,40,1.54,MY,1701114086
517,happy valley-goose bay,53.3168,-60.3315,-3.83,80,100,2.57,CA,1701114086
518,saudarkrokur,65.7461,-19.6394,4.24,91,100,5.23,IS,1701114086
519,freetown,8.484,-13.2299,28.84,74,20,6.17,SL,1701113996
520,kaohsiung,22.6163,120.3133,22.97,74,75,1.54,TW,1701114074
521,salekhard,66.53,66.6019,-15.94,96,100,1.93,RU,1701114086
522,karukh,34.4811,62.5863,10.59,51,3,1.04,AF,1701114086
523,el nido,11.1858,119.3956,27.45,77,27,2.22,PH,1701114086
524,filingue,14.3521,3.3168,30.0,31,91,0.66,NE,1701114086
525,kolwezi,-10.7148,25.4667,16.73,94,100,0.75,CD,1701113539
526,ouadda,8.0777,22.4007,26.46,52,99,1.3,CF,1701114086
527,nadi,-17.8,177.4167,27.0,78,40,2.06,FJ,1701114086
528,midvagur,62.0511,-7.1939,3.46,75,20,4.12,FO,1701114086
529,pitkyaranta,61.5734,31.4792,-8.6,89,100,11.21,RU,1701114086
530,semey,50.4111,80.2275,-0.8,84,97,3.09,KZ,1701114087
531,jumla,29.2747,82.1838,4.08,77,56,1.99,NP,1701114087
532,ciudad del este,-25.5167,-54.6167,23.34,100,100,2.57,PY,1701113552
533,omsk,55.0,73.4,-2.06,100,100,7.15,RU,1701113496
534,tondano,1.3038,124.9112,19.05,94,86,0.9,ID,1701114087
535,sidney,-33.8679,151.2073,20.98,80,75,4.63,AU,1701113836
536,banff,51.1762,-115.5698,-3.43,68,94,5.14,CA,1701114087
537,novozavedennoye,44.2628,43.6381,3.61,97,100,1.72,RU,1701114087
538,huarmey,-10.0681,-78.1522,22.98,73,17,5.41,PE,1701114087
539,viljoenskroon,-27.2084,26.9485,26.58,32,5,3.2,ZA,1701114087
540,isla mujeres,21.2311,-86.731,30.09,75,5,4.41,MX,1701114087
541,sisimiut,66.9395,-53.6735,-3.44,67,100,7.49,GL,1701114087
542,garachico,28.7781,-17.7646,19.06,64,40,2.06,ES,1701114087
543,errachidia,31.9275,-4.4285,16.03,13,0,1.03,MA,1701114087
544,cromer,52.9312,1.2989,7.0,93,97,5.81,GB,1701114088
545,sotnikovskoye,45.0039,43.7772,4.36,69,77,3.09,RU,1701114088
546,stung treng,13.5259,105.9683,19.56,79,100,1.57,KH,1701114088
547,san julian,21.0167,-102.1667,21.0,42,100,1.9,MX,1701114088
548,karratha,-20.7377,116.8463,22.45,67,5,6.98,AU,1701114088
549,bonthe,7.5264,-12.505,27.32,80,52,3.49,SL,1701114088
550,cole harbour,44.6724,-63.4751,9.43,96,100,16.98,CA,1701114088
551,arraial do cabo,-22.9661,-42.0278,26.98,73,75,9.26,BR,1701114088
552,yicheng,31.3705,119.8703,10.52,68,0,3.99,CN,1701114088
553,pisco,-13.7,-76.2167,25.03,61,20,8.23,PE,1701114088
554,vallenar,-28.5708,-70.7581,29.0,24,0,3.95,CL,1701114088
555,yuzhno-kurilsk,44.0306,145.8556,2.99,51,100,5.64,RU,1701114088
556,tsetserleg,47.475,101.4542,-11.12,95,100,1.52,MN,1701114089
557,north bend,43.4065,-124.2243,12.82,66,0,3.09,US,1701114089
558,dawson creek,55.7666,-120.2362,5.77,56,0,4.63,CA,1701114089
559,tecuala,22.3986,-105.4569,29.45,30,100,2.05,MX,1701114089
560,calvi,42.5,8.8333,12.35,63,100,7.2,FR,1701114089
561,ierapetra,35.01,25.7353,13.41,52,6,0.89,GR,1701114014
562,fada,9.5667,8.3,23.44,62,57,0.2,NG,1701114089
563,taoudenni,22.6783,-3.9836,20.76,16,0,3.85,ML,1701114089
564,fish town,5.1964,-7.8756,23.68,94,99,1.33,LR,1701114089
565,yinchuan,38.4681,106.2731,-0.64,38,64,0.89,CN,1701114089
566,bengbu,32.9408,117.3608,6.8,37,0,2.67,CN,1701114089
567,taco pozo,-25.6167,-63.2833,30.29,57,85,2.04,AR,1701114089
